[{"Id":"140","vlr_latitude":"-8.15812110900855","vlr_longitude":"-70.3494715690592","nom_estab":"U S F FRANCISCA LIMA","dsc_endereco":"RUA ALUIZIO MACAMBIRA","dsc_bairro":"BELA VISTA","dsc_telefone":"0","cidade":null,"estado":"Acre"},{"Id":"182","vlr_latitude":"-8.838458061218","vlr_longitude":"-69.259614944456","nom_estab":"CENTRO DE SAUDE INACIO RIBEIRO DA SILVA","dsc_endereco":"RUA VALERIO G DE MAGALHAES","dsc_bairro":"CENTRO","dsc_telefone":"0","cidade":"Manoel Urbano","estado":"Acre"},{"Id":"198","vlr_latitude":"-10.6634438037869","vlr_longitude":"-68.4896492958049","nom_estab":"UNIDADE DE SAUDE DA FAMILIA JOSE RAIMUNDO DE MELO","dsc_endereco":"RUA DO AEROPORTO","dsc_bairro":"CENTRO","dsc_telefone":"35422140","cidade":"Xapuri","estado":"Acre"},{"Id":"218","vlr_latitude":"-7.59902000427224","vlr_longitude":"-72.683401107786","nom_estab":"UNIDADE DE SAUDE DA FAM SENADOR ADALBERTO SENA","dsc_endereco":"AVENIDA 25 DE AGOSTO","dsc_bairro":"AEROPORTO VELHO","dsc_telefone":"0","cidade":"Cruzeiro do Sul","estado":"Acre"},{"Id":"993","vlr_latitude":"-10.6520283222195","vlr_longitude":"-68.4986615180949","nom_estab":"UNIDADE SAUDE DA FAMILIA JOSE FADUL","dsc_endereco":"RUA PETRONIO RODRIGUES","dsc_bairro":"JIQUIA","dsc_telefone":"0","cidade":"Xapuri","estado":"Acre"},{"Id":"1175","vlr_latitude":"-7.71086812019326","vlr_longitude":"-72.7085065841654","nom_estab":"POSTO DE SAUDE BURITIRANA","dsc_endereco":"RAMAL DA BURITIRANA","dsc_bairro":"VILA SAO PEDRO","dsc_telefone":"0","cidade":"Cruzeiro do Sul","estado":"Acre"},{"Id":"1394","vlr_latitude":"-11.0231494903561","vlr_longitude":"-68.7499737739543","nom_estab":"ESF MANOEL ARAUJO DA COSTA","dsc_endereco":"RUA VENEZUELA","dsc_bairro":"SATEL","dsc_telefone":"0","cidade":null,"estado":"Acre"},{"Id":"1630","vlr_latitude":"-10.3877770900723","vlr_longitude":"-67.7679204940776","nom_estab":"UNIDADE DE SAUDE DA FAMILIA RAIMUNDO RODRIGUES LUSTOSA","dsc_endereco":"RAMAL DO SILVEIRA","dsc_bairro":"ALCOBRAS","dsc_telefone":"0","cidade":"Capixaba","estado":"Acre"},{"Id":"1706","vlr_latitude":"-8.1584537029264","vlr_longitude":"-70.7727670669535","nom_estab":"UNIDADE DE S DA FAMILIA DR JOSE LEONCIO GOMES RODRIGUES","dsc_endereco":"RUA EPAMINONDAS JACOME","dsc_bairro":"AVELINO LEAL","dsc_telefone":"2147483647","cidade":null,"estado":"Acre"},{"Id":"1970","vlr_latitude":"-10.1520538330075","vlr_longitude":"-67.7313780784587","nom_estab":"UNIDADE S DA F FRANCISCO TAVEIRA","dsc_endereco":"RUA JOSE DE BARROS","dsc_bairro":"18 DE SETEMBRO","dsc_telefone":"0","cidade":"Senador Guiomard","estado":"Acre"},{"Id":"2380","vlr_latitude":"-9.97213125228853","vlr_longitude":"-67.8349113464336","nom_estab":"CENTRO DE SAUDE GENTIL PERDOMO DA ROCHA","dsc_endereco":"RUA EUCLIDES DA CUNHA","dsc_bairro":"","dsc_telefone":"0","cidade":"Rio Branco","estado":"Acre"},{"Id":"2487","vlr_latitude":"-9.97817158699007","vlr_longitude":"-67.8239250183086","nom_estab":"USF SALGADO FILHO","dsc_endereco":"RUA LEBLON","dsc_bairro":"PREVENTORIO","dsc_telefone":"2147483647","cidade":"Rio Branco","estado":"Acre"},{"Id":"2609","vlr_latitude":"-10.0023651123044","vlr_longitude":"-67.8323578834514","nom_estab":"USF SOBRAL E BOA VISTA","dsc_endereco":"RUA DA LIBERDADE","dsc_bairro":"SOBRAL","dsc_telefone":"2147483647","cidade":"Rio Branco","estado":"Acre"},{"Id":"2828","vlr_latitude":"-9.94113564491243","vlr_longitude":"-67.8593301773052","nom_estab":"USF MOCINHA MAGALHAES","dsc_endereco":"RUA DA BANANA","dsc_bairro":"MOCINHA MAGALHAES","dsc_telefone":"2147483647","cidade":"Rio Branco","estado":"Acre"},{"Id":"2887","vlr_latitude":"-9.94457960128755","vlr_longitude":"-67.8173160552959","nom_estab":"CENTRO DE SAUDE DAS PLACAS","dsc_endereco":"ANTIGA ESTRADA DE PORTO ACRE","dsc_bairro":"PLACAS","dsc_telefone":"2147483647","cidade":"Rio Branco","estado":"Acre"},{"Id":"3231","vlr_latitude":"-8.16541671752906","vlr_longitude":"-70.3499436378459","nom_estab":"CENTRO DE SAUDE DIAMANTINO MACEDO","dsc_endereco":"PRESIDENTE COSTA E SILVA","dsc_bairro":"2 DISTRITO","dsc_telefone":"0","cidade":null,"estado":"Acre"},{"Id":"3253","vlr_latitude":"-9.93345379829378","vlr_longitude":"-67.8255987167339","nom_estab":"URAP FRANCISCO RONEY RODRIGUES MEIRELES","dsc_endereco":"RUA ARARA","dsc_bairro":"ADALBERTO SENA","dsc_telefone":"2147483647","cidade":"Rio Branco","estado":"Acre"},{"Id":"3257","vlr_latitude":"-10.6476509571072","vlr_longitude":"-68.5066652297954","nom_estab":"UNIDADE DE SAUDE DA FAMILIA JOSE FRANCISCO SILVA","dsc_endereco":"RUA SAO JOAO DO GUARANY","dsc_bairro":"SIBERIA","dsc_telefone":"0","cidade":"Xapuri","estado":"Acre"},{"Id":"3424","vlr_latitude":"-11.0031723976132","vlr_longitude":"-68.7558746337871","nom_estab":"ESF FRANCISCO DE ASSIS","dsc_endereco":"RUA PEDRO ALEXANDRINO NETO","dsc_bairro":"SAMAUMA","dsc_telefone":"0","cidade":null,"estado":"Acre"},{"Id":"3528","vlr_latitude":"-9.06876325607274","vlr_longitude":"-68.6710739135722","nom_estab":"UNIDADE BASICA DE SAUDE FLORLIRIO PEREIRA LUSTOSA","dsc_endereco":"AV ORLEIR CAMELI","dsc_bairro":"ANA VIEIRA","dsc_telefone":"0","cidade":"Sena Madureira","estado":"Acre"},{"Id":"3766","vlr_latitude":"-9.98367547988863","vlr_longitude":"-67.8265428543071","nom_estab":"URAP AUGUSTO HIDALGO DE LIMA","dsc_endereco":"TRAVESSA TIAO NATUREZA","dsc_bairro":"BAHIA","dsc_telefone":"2147483647","cidade":"Rio Branco","estado":"Acre"},{"Id":"3815","vlr_latitude":"-9.67940568923922","vlr_longitude":"-67.7419352531413","nom_estab":"UNIDADE DE SAUDE DA FAMILIA MILTON CABRAL DE SOUZA","dsc_endereco":"AVENIDA ROMUALDO ROSAS","dsc_bairro":"PROJETO HUMAITA VILA","dsc_telefone":"0","cidade":"Porto Acre","estado":"Acre"},{"Id":"3818","vlr_latitude":"-10.3219664096829","vlr_longitude":"-67.1863746643047","nom_estab":"U S F DOLORES SILVA VALENTIN","dsc_endereco":"RUA EPITACIO PESSOA","dsc_bairro":"CAGEACRE","dsc_telefone":"32371286","cidade":null,"estado":"Acre"},{"Id":"3925","vlr_latitude":"-11.0223340988156","vlr_longitude":"-68.7452960014323","nom_estab":"CENTRO DE SAUDE JOSE CANDIDO DE MESQUITA","dsc_endereco":"RUA DOM JULIO MATIOLLE","dsc_bairro":"CENTRO","dsc_telefone":"0","cidade":null,"estado":"Acre"},{"Id":"3970","vlr_latitude":"-10.078475475311","vlr_longitude":"-67.0556545257549","nom_estab":"UNIDADE DE SAUDE DA FAMILIA NORTON VITORINO BOHEN","dsc_endereco":"RUA PARANA","dsc_bairro":"CENTRO","dsc_telefone":"2147483647","cidade":null,"estado":"Acre"},{"Id":"4223","vlr_latitude":"-10.1980376243588","vlr_longitude":"-67.1650457382183","nom_estab":"U S F RAIMUNDO NONATO DE SOUZA MARQUES","dsc_endereco":"RODOVIA AC 475 KM 14","dsc_bairro":"ZONA RURAL","dsc_telefone":"0","cidade":null,"estado":"Acre"},{"Id":"4493","vlr_latitude":"-8.94929766654942","vlr_longitude":"-72.7876639366129","nom_estab":"USF DR NALDIR MARIANO","dsc_endereco":"RUA FRANCISCO BEZERRA","dsc_bairro":"CENTRO","dsc_telefone":"0","cidade":"Marechal Thaumaturgo","estado":"Acre"},{"Id":"4694","vlr_latitude":"-9.97929811477632","vlr_longitude":"-67.8365206718425","nom_estab":"CASA DA ADOLESCENTE MOCINHA MAGALHAES","dsc_endereco":"RUA RIO DE JANEIRO","dsc_bairro":"","dsc_telefone":"2147483647","cidade":"Rio Branco","estado":"Acre"},{"Id":"5041","vlr_latitude":"-7.8106892108915","vlr_longitude":"-72.4391269683817","nom_estab":"POSTO DE SAUDE OSVALDO CRUZ","dsc_endereco":"PROJ STA LUZIA","dsc_bairro":"CAMPINA","dsc_telefone":"0","cidade":"Cruzeiro do Sul","estado":"Acre"},{"Id":"5048","vlr_latitude":"-10.9984838962552","vlr_longitude":"-68.7527418136577","nom_estab":"ESF SIMAO MANSOU BARTHA","dsc_endereco":"AV MANOEL MARINHO MONTES","dsc_bairro":"TRES BOTEQUINS","dsc_telefone":"0","cidade":null,"estado":"Acre"},{"Id":"5297","vlr_latitude":"-7.59486794471719","vlr_longitude":"-72.9278898239115","nom_estab":"U S F SOFIA ALMEIDA BARRETO","dsc_endereco":"RUA OSVALDO CORREIA SANTANA","dsc_bairro":"SAO FRANCISCO","dsc_telefone":"0","cidade":null,"estado":"Acre"},{"Id":"5467","vlr_latitude":"-10.001024007797","vlr_longitude":"-67.8400182723979","nom_estab":"USF PLACIDO DE CASTRO","dsc_endereco":"RUA 02 DE JUNHO","dsc_bairro":"PLACIDO DE CASTRO","dsc_telefone":"2147483647","cidade":"Rio Branco","estado":"Acre"},{"Id":"5541","vlr_latitude":"-9.95352745056123","vlr_longitude":"-67.7984762191753","nom_estab":"URAP SAO FRANCISCO","dsc_endereco":"RUA JOAQUIM MACEDO","dsc_bairro":"SAO FRANCISCO","dsc_telefone":"32239480","cidade":"Rio Branco","estado":"Acre"},{"Id":"5928","vlr_latitude":"-9.97340798377962","vlr_longitude":"-67.8176379203777","nom_estab":"USF PREVENTORIO","dsc_endereco":"RUA RIO GRANDE DO SUL","dsc_bairro":"PREVENTORIO","dsc_telefone":"32231193","cidade":"Rio Branco","estado":"Acre"},{"Id":"6137","vlr_latitude":"-9.98004913330049","vlr_longitude":"-67.8174877166728","nom_estab":"USF CIDADE NOVA II","dsc_endereco":"RUA BAIXA VERDE","dsc_bairro":"CIDADE NOVA","dsc_telefone":"32265062","cidade":"Rio Branco","estado":"Acre"},{"Id":"6430","vlr_latitude":"-9.93994474410982","vlr_longitude":"-67.805085182188","nom_estab":"USF CHICO MENDES I","dsc_endereco":"RUA LOURENCO LOPES","dsc_bairro":"CHICO MENDES","dsc_telefone":"2147483647","cidade":"Rio Branco","estado":"Acre"},{"Id":"6911","vlr_latitude":"-7.58892416954019","vlr_longitude":"-72.9358720779398","nom_estab":"U S F JOSE ARAUJO","dsc_endereco":"IRACEMA","dsc_bairro":"IRACEMA","dsc_telefone":"33431554","cidade":null,"estado":"Acre"},{"Id":"6985","vlr_latitude":"-7.62693643569924","vlr_longitude":"-72.6856112480142","nom_estab":"UNIDADE DE SAUDE DA FAMILIA NESTOR SOARES DE VASCONCELOS","dsc_endereco":"AV 7 DE SETEMBRO","dsc_bairro":"COHAB","dsc_telefone":"14","cidade":"Cruzeiro do Sul","estado":"Acre"},{"Id":"7054","vlr_latitude":"-10.9394216537472","vlr_longitude":"-69.5629835128764","nom_estab":"UNIDADE BASICA DE SAUDE JORGE MIZAEL SAADY","dsc_endereco":"RUA FRANCISCO DAS CHAGAS","dsc_bairro":"CASCATA","dsc_telefone":"0","cidade":"Assis Brasil","estado":"Acre"},{"Id":"7059","vlr_latitude":"-9.96986746787996","vlr_longitude":"-67.8068017959575","nom_estab":"SAUDE DO TRABALHADOR CEREST","dsc_endereco":"RUA GUIOMARD SANTOS","dsc_bairro":"BOSQUE","dsc_telefone":"2147483647","cidade":"Rio Branco","estado":"Acre"},{"Id":"7819","vlr_latitude":"-9.92357254028292","vlr_longitude":"-67.8175306320171","nom_estab":"MODULO DE SAUDE ACRE CSE","dsc_endereco":"RUA MANIFE","dsc_bairro":"APOLONIO SALES","dsc_telefone":"2147483647","cidade":"Rio Branco","estado":"Acre"},{"Id":"7839","vlr_latitude":"-9.52334403991672","vlr_longitude":"-67.7762246131877","nom_estab":"UNIDADE DE SAUDE DA FAMILIA ALVARO ARAUJO NOBRE","dsc_endereco":"RAMAL BOA FE","dsc_bairro":"PROJETO TOCANTINS","dsc_telefone":"0","cidade":"Porto Acre","estado":"Acre"},{"Id":"8069","vlr_latitude":"-9.94888186454744","vlr_longitude":"-67.8529572486858","nom_estab":"USF RUI LINO","dsc_endereco":"RUA GOVERNADOR EDMUNDO PINTO","dsc_bairro":"DISTRITO INDUSTRIAL","dsc_telefone":"2147483647","cidade":"Rio Branco","estado":"Acre"},{"Id":"8070","vlr_latitude":"-9.59248065948458","vlr_longitude":"-67.543215751646","nom_estab":"UNIDADE DE SAUDE DA FAMILIA MARIA SOLEDADE SOARES GADELHA","dsc_endereco":"ROD AC 10KM 56","dsc_bairro":"LIVRAMENTO","dsc_telefone":"0","cidade":"Porto Acre","estado":"Acre"},{"Id":"8293","vlr_latitude":"-11.0358309745785","vlr_longitude":"-68.7478494644145","nom_estab":"ESF JOSE FRANCISCO DO NASCIMENTO","dsc_endereco":"RUA SAO SEBASTIAO","dsc_bairro":"JOSE HASSEM","dsc_telefone":"0","cidade":null,"estado":"Acre"},{"Id":"8688","vlr_latitude":"-10.3586912155148","vlr_longitude":"-67.8131103515605","nom_estab":"UNIDADE DE SAUDE DA FAMILIA DA ALCOBRAS","dsc_endereco":"RAMAL DO BARRIGA","dsc_bairro":"EST CAPIXABA","dsc_telefone":"0","cidade":"Capixaba","estado":"Acre"},{"Id":"8781","vlr_latitude":"-9.49159741401645","vlr_longitude":"-68.3548736572246","nom_estab":"USF ANTIMARY","dsc_endereco":"BR 364 KM 87 MARGENS DO DO RIO ANTIMARY","dsc_bairro":"ZONA RURAL","dsc_telefone":"0","cidade":"Bujari","estado":"Acre"},{"Id":"9239","vlr_latitude":"-9.97849345207185","vlr_longitude":"-67.8719687461833","nom_estab":"USF PORTAL DA AMAZONIA CALAFATE","dsc_endereco":"ESTRADA DO CALAFATE Q C C 13","dsc_bairro":"CALAFATE","dsc_telefone":"2147483647","cidade":"Rio Branco","estado":"Acre"},{"Id":"9266","vlr_latitude":"-10.0270521640775","vlr_longitude":"-67.7973175048808","nom_estab":"USF VILA DA AMIZADE","dsc_endereco":"RUA MONTE SINAI","dsc_bairro":"SANTA HELENA","dsc_telefone":"2147483647","cidade":"Rio Branco","estado":"Acre"},{"Id":"9300","vlr_latitude":"-11.0134398937222","vlr_longitude":"-68.741283416746","nom_estab":"ESF TUFIC MIZAEL SAADY","dsc_endereco":"AV JOSE RUY LINO","dsc_bairro":"RAIMUNDO CHAAR","dsc_telefone":"0","cidade":null,"estado":"Acre"},{"Id":"9370","vlr_latitude":"-8.15252065658546","vlr_longitude":"-70.7580041885355","nom_estab":"UNIDADE DE SAUDE DA FAMILIA MARIA ESPANHOL DA SILVA","dsc_endereco":"RUA CAPITAO HIPOLITO","dsc_bairro":"TRIANGULO","dsc_telefone":"0","cidade":null,"estado":"Acre"},{"Id":"9821","vlr_latitude":"-9.98166918754549","vlr_longitude":"-67.8168654441814","nom_estab":"CENTRO DE SAUDE DOUTOR MARIO MAIA","dsc_endereco":"RUA NOVO ANDIRA","dsc_bairro":"CIDADE NOVA","dsc_telefone":"2147483647","cidade":"Rio Branco","estado":"Acre"},{"Id":"9890","vlr_latitude":"-9.06507253646824","vlr_longitude":"-68.6524701118449","nom_estab":"UNIDADE BASICA DE SAUDE RICIOTI TAMBURINI","dsc_endereco":"RUA BEIRO RIO","dsc_bairro":"NITEROI","dsc_telefone":"0","cidade":"Sena Madureira","estado":"Acre"},{"Id":"10078","vlr_latitude":"-7.76208758354164","vlr_longitude":"-72.3023986816385","nom_estab":"POSTO DE SAUDE CAMPINA","dsc_endereco":"BR 364","dsc_bairro":"RIO LIBERDADE","dsc_telefone":"0","cidade":"Cruzeiro do Sul","estado":"Acre"},{"Id":"10239","vlr_latitude":"-7.61059641838052","vlr_longitude":"-72.6732945442179","nom_estab":"UNIDADE DE SAUDE DA FAMILIA PROF QUITA","dsc_endereco":"TRAVESSA DA ALEGRIA","dsc_bairro":"SAO JOSE","dsc_telefone":"0","cidade":"Cruzeiro do Sul","estado":"Acre"},{"Id":"10853","vlr_latitude":"-7.73657441139199","vlr_longitude":"-72.6483392715433","nom_estab":"UNIDADE BASICA PADRE TEODORO ARNDS","dsc_endereco":"AV GETULIO VARGAS","dsc_bairro":"CENTRO","dsc_telefone":"68","cidade":"Rodrigues Alves","estado":"Acre"},{"Id":"11021","vlr_latitude":"-7.61128306388833","vlr_longitude":"-72.903857231138","nom_estab":"U S F QUINTINO RIO BRANCO LEBRE","dsc_endereco":"AV JAPIIM","dsc_bairro":"CENTRO","dsc_telefone":"0","cidade":null,"estado":"Acre"},{"Id":"11288","vlr_latitude":"-10.5735254287717","vlr_longitude":"-67.6774549484233","nom_estab":"CENTRO DE SAUDE IDELFONSO CORDEIRO DE ANDRADE","dsc_endereco":"RUA FRANCISCO CORDEIRO DE ANDRADE","dsc_bairro":"CONQUISTA","dsc_telefone":"0","cidade":"Capixaba","estado":"Acre"},{"Id":"11838","vlr_latitude":"-8.16388249397254","vlr_longitude":"-70.3406739234904","nom_estab":"U S F DR JOSE LUIZ DE SOUZA","dsc_endereco":"RUA SAMUEL ELIAS DO NASCIMENTO","dsc_bairro":"GENIR NUNES","dsc_telefone":"0","cidade":null,"estado":"Acre"},{"Id":"12245","vlr_latitude":"-9.95199322700472","vlr_longitude":"-67.7994203567485","nom_estab":"USF VITORIA I","dsc_endereco":"RUA LUIZ GONZAGA","dsc_bairro":"SAO FRANCISCO VITO","dsc_telefone":"2147483647","cidade":"Rio Branco","estado":"Acre"},{"Id":"12246","vlr_latitude":"-9.97070431709261","vlr_longitude":"-67.7927041053752","nom_estab":"USF CADEIA VELHA I","dsc_endereco":"RUA SAO PEDRO","dsc_bairro":"CADEIA VELHA","dsc_telefone":"32242200","cidade":"Rio Branco","estado":"Acre"},{"Id":"12604","vlr_latitude":"-7.6304233074186","vlr_longitude":"-72.6592183113077","nom_estab":"UNIDADE DE SAUDE DA FAMILIA J LINS","dsc_endereco":"RUA MINAS GERAIS","dsc_bairro":"ALUMINIO","dsc_telefone":"0","cidade":"Cruzeiro do Sul","estado":"Acre"},{"Id":"13984","vlr_latitude":"-9.82489943504305","vlr_longitude":"-67.9502248764018","nom_estab":"U S F MARIA IZA VIANA DE CASTRO","dsc_endereco":"RUA JOSE PEREIRA GURGEL","dsc_bairro":"CENTRO","dsc_telefone":"0","cidade":"Bujari","estado":"Acre"},{"Id":"14054","vlr_latitude":"-7.95364022254921","vlr_longitude":"-71.4828658103922","nom_estab":"POSTO DE SAUDE GREGORIO","dsc_endereco":"BR 364 KM 102","dsc_bairro":"GREGORIO","dsc_telefone":"0","cidade":null,"estado":"Acre"},{"Id":"14425","vlr_latitude":"-10.0063562393186","vlr_longitude":"-67.7862668037395","nom_estab":"USF RECANTO II","dsc_endereco":"RAMAL DA JUDIA","dsc_bairro":"BELO JARDIM I","dsc_telefone":"32211104","cidade":"Rio Branco","estado":"Acre"},{"Id":"14437","vlr_latitude":"-11.0511732101437","vlr_longitude":"-68.5322642326335","nom_estab":"ESF SAO CRISTOVAO","dsc_endereco":"EST VELHA KM 33","dsc_bairro":"ZONA RURAL","dsc_telefone":"0","cidade":null,"estado":"Acre"},{"Id":"15020","vlr_latitude":"-10.9406876564023","vlr_longitude":"-69.5612668991069","nom_estab":"UNIDADE BASICA DE SAUDE TEREZINHA BATISTA DOS SANTOS","dsc_endereco":"RUA RAFAEL MARTINS LEAO","dsc_bairro":"CENTRO","dsc_telefone":"0","cidade":"Assis Brasil","estado":"Acre"},{"Id":"15166","vlr_latitude":"-7.5491952896116","vlr_longitude":"-72.7259302139261","nom_estab":"UNIDADE DE SAUDE DA FAMILIA MANOEL RODRIGUES DE ARAUJO","dsc_endereco":"ESTRADA DO CANELA FINA","dsc_bairro":"CANELA FINA","dsc_telefone":"0","cidade":"Cruzeiro do Sul","estado":"Acre"},{"Id":"15256","vlr_latitude":"-10.1423013210294","vlr_longitude":"-67.7326226234416","nom_estab":"CENTRO DE SAUDE ILSON ALVES RIBEIRO","dsc_endereco":"RUA JAMIL BESTENE","dsc_bairro":"NAIRE LEITE","dsc_telefone":"68","cidade":"Senador Guiomard","estado":"Acre"},{"Id":"15582","vlr_latitude":"-9.07279729843113","vlr_longitude":"-68.6617827415446","nom_estab":"UNIDADE BASICA DE SAUDE MARIA DAS DORES DE PAULA","dsc_endereco":"RUA ANTONIO CARLOS PEREIRA","dsc_bairro":"CSU","dsc_telefone":"0","cidade":"Sena Madureira","estado":"Acre"},{"Id":"15963","vlr_latitude":"-10.034530162811","vlr_longitude":"-67.8237748146037","nom_estab":"USF AMAPA","dsc_endereco":"VIA VERDE ANTIGA ESTRADA DO AMAPA","dsc_bairro":"ZONA RURAL","dsc_telefone":"2147483647","cidade":"Rio Branco","estado":"Acre"},{"Id":"16471","vlr_latitude":"-10.0070750713345","vlr_longitude":"-67.7929615974407","nom_estab":"USF SANTA INES I","dsc_endereco":"RUA EDMUNDO PINTO","dsc_bairro":"SANTA INES","dsc_telefone":"2147483647","cidade":"Rio Branco","estado":"Acre"},{"Id":"16586","vlr_latitude":"-9.99756932258577","vlr_longitude":"-67.8215861320476","nom_estab":"USF AYRTON SENNA II","dsc_endereco":"RUA CAMPO GRANDE","dsc_bairro":"AYRTON SENNA I","dsc_telefone":"32422485","cidade":"Rio Branco","estado":"Acre"},{"Id":"16682","vlr_latitude":"-10.5761754512784","vlr_longitude":"-67.676489353178","nom_estab":"UNIDADE DE SAUDE DA FAMILIA DR LUIZ FERNANDO MAGALHAES","dsc_endereco":"AV GOV EDMUNDO PINTO","dsc_bairro":"CENTRO","dsc_telefone":"0","cidade":"Capixaba","estado":"Acre"},{"Id":"16744","vlr_latitude":"-9.99387860298128","vlr_longitude":"-67.8057718276958","nom_estab":"USF COMARA","dsc_endereco":"RUA RAIMUNDO GUERRA","dsc_bairro":"COMARA","dsc_telefone":"32218939","cidade":"Rio Branco","estado":"Acre"},{"Id":"16769","vlr_latitude":"-7.59179949760415","vlr_longitude":"-72.8082633018472","nom_estab":"UNIDADE DE SAUDE DA FAMILIA NARY DO MOA","dsc_endereco":"DERACRE","dsc_bairro":"DERACRE","dsc_telefone":"0","cidade":"Cruzeiro do Sul","estado":"Acre"},{"Id":"17055","vlr_latitude":"-8.83269667625402","vlr_longitude":"-69.2652583122233","nom_estab":"CENTRO DE SAUDE JOSEFA NUNES","dsc_endereco":"RUA FRANCISCO FERREIRA MENDES","dsc_bairro":"SAO FRANCISCO","dsc_telefone":"0","cidade":"Manoel Urbano","estado":"Acre"},{"Id":"17220","vlr_latitude":"-9.95587706565828","vlr_longitude":"-67.8157925605754","nom_estab":"UNIDADE DE INTERNACAO PROVISORIA","dsc_endereco":"RUA ALVORADA","dsc_bairro":"BOSQUE","dsc_telefone":"2147483647","cidade":"Rio Branco","estado":"Acre"},{"Id":"17579","vlr_latitude":"-11.0096955299374","vlr_longitude":"-68.7424850463847","nom_estab":"CENTRO DE SAUDE DR FERNANDO CORREIA","dsc_endereco":"RUA GENERALISSIMO DOEDORO","dsc_bairro":"CENTRO","dsc_telefone":"0","cidade":null,"estado":"Acre"},{"Id":"17896","vlr_latitude":"-7.61635780334451","vlr_longitude":"-72.6844096183756","nom_estab":"UNIDADE DE SAUDE DA FAMILIA ABEL PINHEIRO","dsc_endereco":"RUA MORADA FELIZ","dsc_bairro":"FORMOSO","dsc_telefone":"0","cidade":"Cruzeiro do Sul","estado":"Acre"},{"Id":"18046","vlr_latitude":"-7.664895057678","vlr_longitude":"-72.812361717222","nom_estab":"UNIDADE DE SAUDE DA FAMILIA SANTA ROSA","dsc_endereco":"BR 364","dsc_bairro":"SANTA ROSA","dsc_telefone":"0","cidade":"Cruzeiro do Sul","estado":"Acre"},{"Id":"18394","vlr_latitude":"-9.99494075775118","vlr_longitude":"-67.8294181823711","nom_estab":"USF BOA UNIAO","dsc_endereco":"RUA 10 DE JANEIRO","dsc_bairro":"BOA UNIAO","dsc_telefone":"32256002","cidade":"Rio Branco","estado":"Acre"},{"Id":"18423","vlr_latitude":"-10.1010382175443","vlr_longitude":"-67.6143264770488","nom_estab":"UNIDADE DE SAUDE DA FAMILIA MAXIMO DAMASCENO","dsc_endereco":"ESTRADA DE BOCA DO ACRE KM 16","dsc_bairro":"ZONA RURAL","dsc_telefone":"0","cidade":"Senador Guiomard","estado":"Acre"},{"Id":"18455","vlr_latitude":"-10.6542384624478","vlr_longitude":"-68.5032105445842","nom_estab":"CENTRO DE SAUDE DR FELIX BESTENE NETO","dsc_endereco":"RUA CORONEL BRANDAO","dsc_bairro":"CENTRO","dsc_telefone":"0","cidade":"Xapuri","estado":"Acre"},{"Id":"18672","vlr_latitude":"-10.0035023689267","vlr_longitude":"-67.7955794334392","nom_estab":"USF RECANTO I","dsc_endereco":"RUA COELHO","dsc_bairro":"RECANTO DOS BURITIS","dsc_telefone":"32217521","cidade":"Rio Branco","estado":"Acre"},{"Id":"19432","vlr_latitude":"-9.9432921409604","vlr_longitude":"-67.7962446212749","nom_estab":"USF JARDIM ELDORADO","dsc_endereco":"RUA GIRASSOL","dsc_bairro":"SAO FRANCISCO VITO","dsc_telefone":"2147483647","cidade":"Rio Branco","estado":"Acre"},{"Id":"19627","vlr_latitude":"-9.99612092971773","vlr_longitude":"-67.8079390525798","nom_estab":"CENTRO DE SAUDE DR CLAUDIA VITORINO","dsc_endereco":"RUA BAGUARI","dsc_bairro":"TAQUARI","dsc_telefone":"32214717","cidade":"Rio Branco","estado":"Acre"},{"Id":"19831","vlr_latitude":"-9.9668312072751","vlr_longitude":"-67.830297946928","nom_estab":"CENTRO DE SAUDE BARRAL Y BARRAL","dsc_endereco":"AVENIDA NACOES UNIDAS","dsc_bairro":"ESTACAO EXPERIMENTAL","dsc_telefone":"32264202","cidade":"Rio Branco","estado":"Acre"},{"Id":"20053","vlr_latitude":"-9.97087597846956","vlr_longitude":"-67.7989053726177","nom_estab":"USF BAIXADA DA HABITASA","dsc_endereco":"RUA PERU","dsc_bairro":"HABITASA","dsc_telefone":"2147483647","cidade":"Rio Branco","estado":"Acre"},{"Id":"20189","vlr_latitude":"-10.1520109176633","vlr_longitude":"-67.7390599250774","nom_estab":"CENTRO DE SAUDE MARIA DO SOCORRO CAVALCANTE","dsc_endereco":"AVENIDA CASTELO BRANCO","dsc_bairro":"CENTRO","dsc_telefone":"0","cidade":"Senador Guiomard","estado":"Acre"},{"Id":"20212","vlr_latitude":"-7.74057626724221","vlr_longitude":"-72.4859046936014","nom_estab":"UNIDADE DE SAUDE DA FAMILIA LAGOINHA","dsc_endereco":"BR 364","dsc_bairro":"LAGOINHA","dsc_telefone":"0","cidade":"Cruzeiro do Sul","estado":"Acre"},{"Id":"20318","vlr_latitude":"-11.0254991054532","vlr_longitude":"-68.6642289161662","nom_estab":"ESF NARI BELA FLOR","dsc_endereco":"BR 317 KM 09 VILA PROGRESSO","dsc_bairro":"ZONA RURAL","dsc_telefone":"2147483647","cidade":null,"estado":"Acre"},{"Id":"20348","vlr_latitude":"-7.64030456542947","vlr_longitude":"-72.6803112030008","nom_estab":"UNIDADE DE SAUDE DA FAMILIA GEOSETE MARIANO COELHO","dsc_endereco":"AV 15 DE NOVEMBRO","dsc_bairro":"CRUZEIRINHO","dsc_telefone":"0","cidade":"Cruzeiro do Sul","estado":"Acre"},{"Id":"20465","vlr_latitude":"-9.95852708816499","vlr_longitude":"-67.8528070449809","nom_estab":"USF JARDIM PRIMAVERA","dsc_endereco":"RUA AZALEIA","dsc_bairro":"JARDIM PRIMAVERA","dsc_telefone":"32264171","cidade":"Rio Branco","estado":"Acre"},{"Id":"20530","vlr_latitude":"-8.16069602966285","vlr_longitude":"-70.7709646224955","nom_estab":"UNIDADE DE SAUDE DA FAMILIA 24 DE ABRIL","dsc_endereco":"RUA FLORIANO PEIXOTO","dsc_bairro":"COHAB","dsc_telefone":"2147483647","cidade":null,"estado":"Acre"},{"Id":"20621","vlr_latitude":"-9.08440589904759","vlr_longitude":"-68.6760520935039","nom_estab":"MANOEL FERNANDES VIEIRA","dsc_endereco":"RUA CANARIO","dsc_bairro":"EUGENIO AUGUSTO AREA","dsc_telefone":"0","cidade":"Sena Madureira","estado":"Acre"},{"Id":"20706","vlr_latitude":"-10.0104546546933","vlr_longitude":"-67.7042770385723","nom_estab":"CENTRO DE SAUDE SOUZA ARAUJO","dsc_endereco":"BR 364 KM 10","dsc_bairro":"ZONA RURAL","dsc_telefone":"32486259","cidade":"Rio Branco","estado":"Acre"},{"Id":"20909","vlr_latitude":"-9.81174588203402","vlr_longitude":"-67.0942354202251","nom_estab":"UNIDADE DE SAUDE DA FAMILIA CICERO BATISTA","dsc_endereco":"RAMAL GRANADA KM 16","dsc_bairro":"ZONA RURAL","dsc_telefone":"2147483647","cidade":null,"estado":"Acre"},{"Id":"20979","vlr_latitude":"-9.95011568069429","vlr_longitude":"-67.8244185447673","nom_estab":"CENTRO DE SAUDE VILA IVONETE","dsc_endereco":"AVENIDA ANTONIO DA ROCHA VIANA","dsc_bairro":"VILA IVONETE","dsc_telefone":"2147483647","cidade":"Rio Branco","estado":"Acre"},{"Id":"20990","vlr_latitude":"-9.72768545150729","vlr_longitude":"-67.6978826522808","nom_estab":"UNIDADE DE SAUDE DA FAMILIA OSWALDO CRUZ","dsc_endereco":"ROD AC 10 KM 29","dsc_bairro":"PROJETO HUMAITA","dsc_telefone":"2147483647","cidade":"Porto Acre","estado":"Acre"},{"Id":"21133","vlr_latitude":"-9.05694007873509","vlr_longitude":"-68.6642718315105","nom_estab":"UNIDADE DE SAUDE DA FAMILIA FLORIANO FLORENTINO M DA SILVA","dsc_endereco":"RUA JOSE FELIX","dsc_bairro":"BOM SUCESSO","dsc_telefone":"0","cidade":"Sena Madureira","estado":"Acre"},{"Id":"21308","vlr_latitude":"-9.18967723846409","vlr_longitude":"-71.9502353668192","nom_estab":"UNIDADE DE SAUDE DA FAMILIA ANTONIO RODRIGUES DOURADO","dsc_endereco":"RUA ROMILDO MAGALHAES","dsc_bairro":"CENTRO","dsc_telefone":"0","cidade":null,"estado":"Acre"},{"Id":"21491","vlr_latitude":"-9.07061934471104","vlr_longitude":"-68.655538558958","nom_estab":"UNIDADE BASICA DE SAUDE AGUINALDO NUNES DE OLIVEIRA","dsc_endereco":"RUA PADRE EGIDIO","dsc_bairro":"CENTRO","dsc_telefone":"0","cidade":"Sena Madureira","estado":"Acre"},{"Id":"21528","vlr_latitude":"-8.1702876091001","vlr_longitude":"-70.3466176986674","nom_estab":"U S F MARIA ALICE","dsc_endereco":"RUA NESTOR FERREIRA BRAGA","dsc_bairro":"ESPERANCA","dsc_telefone":"0","cidade":null,"estado":"Acre"},{"Id":"21780","vlr_latitude":"-9.98972654342622","vlr_longitude":"-67.8300189971904","nom_estab":"USF BAHIA NOVA","dsc_endereco":"RUA ESTACIO DE SA","dsc_bairro":"BAHIA NOVA","dsc_telefone":"2147483647","cidade":"Rio Branco","estado":"Acre"},{"Id":"22419","vlr_latitude":"-7.636978626251","vlr_longitude":"-72.6723074913004","nom_estab":"UNIDADE SAUDE DA FAMILIA CAPUCHU","dsc_endereco":"AV JOAQUIM TAVORA","dsc_bairro":"CENTRO","dsc_telefone":"0","cidade":"Cruzeiro do Sul","estado":"Acre"},{"Id":"22929","vlr_latitude":"-9.97317194938631","vlr_longitude":"-67.7989053726177","nom_estab":"USF CADEIA VELHA II","dsc_endereco":"AV EPAMINONDAS JACOME","dsc_bairro":"CADEIA VELHA","dsc_telefone":"32234496","cidade":"Rio Branco","estado":"Acre"},{"Id":"23341","vlr_latitude":"-8.17005157470679","vlr_longitude":"-70.3556084632853","nom_estab":"UNIDADE DE SAUDE DA FAMILIA DULCE DE ARAUJO ANDRADE SENA","dsc_endereco":"AV MARECHAL DEODORO","dsc_bairro":"CENTRO","dsc_telefone":"0","cidade":null,"estado":"Acre"},{"Id":"23348","vlr_latitude":"-9.99646425247163","vlr_longitude":"-67.81553506851","nom_estab":"USF TAQUARI II","dsc_endereco":"RUA DO PASSEIO","dsc_bairro":"TAQUARI II","dsc_telefone":"2147483647","cidade":"Rio Branco","estado":"Acre"},{"Id":"23368","vlr_latitude":"-10.0144672393796","vlr_longitude":"-67.7170658111553","nom_estab":"USF SANTA CECILIA ALBERT SAMPAIO DOM MOACIR","dsc_endereco":"RUA FLAVIANO MELO","dsc_bairro":"SANTA CECILIA","dsc_telefone":"32486372","cidade":"Rio Branco","estado":"Acre"},{"Id":"25068","vlr_latitude":"-7.6393389701841","vlr_longitude":"-72.6627588272074","nom_estab":"UNIDADE DA SAUDE DA FAM MIRITIZAL","dsc_endereco":"BR 364","dsc_bairro":"MIRITIZAL","dsc_telefone":"0","cidade":"Cruzeiro do Sul","estado":"Acre"},{"Id":"25753","vlr_latitude":"-8.26653599739051","vlr_longitude":"-72.7408003807047","nom_estab":"UNIDADE DE SAUDE DA FAMILIA PORTO WALTER","dsc_endereco":"RUA BEIRA RIO","dsc_bairro":"CENTRO","dsc_telefone":"0","cidade":"Porto Walter","estado":"Acre"},{"Id":"25816","vlr_latitude":"-9.06804442405674","vlr_longitude":"-68.6594009399394","nom_estab":"UNIDADE BASICA DE SAUDE CARLOS AFONSO VIEIRA","dsc_endereco":"RUA MONSENHOR TAVORA","dsc_bairro":"CENTRO","dsc_telefone":"0","cidade":"Sena Madureira","estado":"Acre"},{"Id":"26088","vlr_latitude":"-10.9532296657559","vlr_longitude":"-68.9292097091655","nom_estab":"ESF DR RICARDO BARBOSA SILVA","dsc_endereco":"ESTRADA DO PACIFICO KM 26 BR 317","dsc_bairro":"ZONA RURAL","dsc_telefone":"0","cidade":null,"estado":"Acre"},{"Id":"26192","vlr_latitude":"-10.318200588226","vlr_longitude":"-67.36636161804","nom_estab":"U S F PA TRIUNFO PSF MOVEL","dsc_endereco":"AC 40 KM 25 TRIUNFO","dsc_bairro":"ZONA RURAL","dsc_telefone":"0","cidade":null,"estado":"Acre"},{"Id":"26462","vlr_latitude":"-9.94580268859834","vlr_longitude":"-67.8814315795879","nom_estab":"USF NIMEO INSFRAN MARTINEZ","dsc_endereco":"AV MARIA JOSE DE OLIVEIRA","dsc_bairro":"DISTRITO INDUSTRIAL","dsc_telefone":"2147483647","cidade":"Rio Branco","estado":"Acre"},{"Id":"26529","vlr_latitude":"-7.46532797813394","vlr_longitude":"-72.9600977897623","nom_estab":"U S F FRANCISCO ALENCAR","dsc_endereco":"PARANA PENTECOSTE","dsc_bairro":"ZONA RURAL","dsc_telefone":"0","cidade":null,"estado":"Acre"},{"Id":"26682","vlr_latitude":"-9.94447231292696","vlr_longitude":"-67.801480293272","nom_estab":"USF VITORIA II","dsc_endereco":"RUA ARCO IRIS","dsc_bairro":"SAO FRANCISCO VITO","dsc_telefone":"2147483647","cidade":"Rio Branco","estado":"Acre"},{"Id":"26872","vlr_latitude":"-10.0753641128537","vlr_longitude":"-67.0512771606426","nom_estab":"UNIDADE DE SAUDE DA FAMILIA RICARDO MONTEIRO ROLA","dsc_endereco":"RUA 07 QUEDAS","dsc_bairro":"CENTRO","dsc_telefone":"2147483647","cidade":null,"estado":"Acre"},{"Id":"26970","vlr_latitude":"-10.8181321620938","vlr_longitude":"-69.2275786399821","nom_estab":"ESF PEDRO OLIVEIRA DE SOUZA","dsc_endereco":"ESTRADA DO PACIFICO KM 68 BR 317","dsc_bairro":"ZONA RURAL","dsc_telefone":"0","cidade":null,"estado":"Acre"},{"Id":"26977","vlr_latitude":"-10.0109267234799","vlr_longitude":"-67.7815675735454","nom_estab":"USF BELO JARDIM I","dsc_endereco":"RUA PRINCEZINHA","dsc_bairro":"BELO JARDIM","dsc_telefone":"0","cidade":"Rio Branco","estado":"Acre"},{"Id":"26987","vlr_latitude":"-9.935835599899","vlr_longitude":"-68.3046841621379","nom_estab":"USF PROJETO FIGUEIRA","dsc_endereco":"PROJETO FIGUEIRA KM 58","dsc_bairro":"ZONA RURAL","dsc_telefone":"0","cidade":"Rio Branco","estado":"Acre"},{"Id":"27440","vlr_latitude":"-11.0269904136655","vlr_longitude":"-68.7395668029765","nom_estab":"ESF JOAO ALVES DA SILVA","dsc_endereco":"RUA SAO JOAO DEL REI","dsc_bairro":"LIBERDADE","dsc_telefone":"35464083","cidade":null,"estado":"Acre"},{"Id":"27675","vlr_latitude":"-9.97863292694063","vlr_longitude":"-67.8048920631389","nom_estab":"CENTRO DE SAUDE ARY RODRIGUES","dsc_endereco":"RUA 06 DE AGOSTO","dsc_bairro":"SEIS DE AGOSTO","dsc_telefone":"2147483647","cidade":"Rio Branco","estado":"Acre"},{"Id":"28261","vlr_latitude":"-8.16226243972755","vlr_longitude":"-70.7647633552531","nom_estab":"USF MARIA FRANCISCA DA COSTA CABRAL","dsc_endereco":"RUA FLORIANO PEIXOTO","dsc_bairro":"SENADOR POMPEU","dsc_telefone":"2147483647","cidade":null,"estado":"Acre"},{"Id":"28369","vlr_latitude":"-10.0049185752866","vlr_longitude":"-67.8017592430095","nom_estab":"USF AREAL I","dsc_endereco":"AV AMADEO BARBOSA","dsc_bairro":"RECANTO DOS BURUTIS","dsc_telefone":"2147483647","cidade":"Rio Branco","estado":"Acre"},{"Id":"28678","vlr_latitude":"-10.053981542587","vlr_longitude":"-67.7772116661052","nom_estab":"USF BENFICA","dsc_endereco":"RODOVIA AC 40 KM 09","dsc_bairro":"BENFICA","dsc_telefone":"2147483647","cidade":"Rio Branco","estado":"Acre"},{"Id":"28877","vlr_latitude":"-10.3318262100217","vlr_longitude":"-67.5212860107402","nom_estab":"U S F MARIO GOMES DA SILVA","dsc_endereco":"ROD AC 40 KM 58","dsc_bairro":"ROD AC 40","dsc_telefone":"0","cidade":null,"estado":"Acre"},{"Id":"29110","vlr_latitude":"-10.040119886398","vlr_longitude":"-67.7956867217998","nom_estab":"USF VILA ACRE","dsc_endereco":"RODOVIA AC 40 KM 07","dsc_bairro":"SANTA HELENA","dsc_telefone":"2147483647","cidade":"Rio Branco","estado":"Acre"},{"Id":"29655","vlr_latitude":"-10.063712596893","vlr_longitude":"-67.2985768318157","nom_estab":"U S F FRANCISCO DE CASTRO","dsc_endereco":"RUA AQUIRI","dsc_bairro":"ZONA RURAL DISTRIT","dsc_telefone":"32671137","cidade":null,"estado":"Acre"},{"Id":"29732","vlr_latitude":"-7.62456536293008","vlr_longitude":"-72.6732516288736","nom_estab":"CENTRO DE SAUDE MANOEL BEZERRA CUNHA","dsc_endereco":"AV 25 DE AG0STO","dsc_bairro":"25 DE AGOSTO","dsc_telefone":"0","cidade":"Cruzeiro do Sul","estado":"Acre"},{"Id":"29796","vlr_latitude":"-10.3342831134793","vlr_longitude":"-67.1856665611248","nom_estab":"U S F MARIA DE FATIMA FERREIRA DE PAULA","dsc_endereco":"RUA CORONEL FONTINELE DE CASTRO","dsc_bairro":"CENTRO","dsc_telefone":"32371941","cidade":null,"estado":"Acre"},{"Id":"29859","vlr_latitude":"-9.07805442810032","vlr_longitude":"-68.6690139770488","nom_estab":"UNIDADE BASICA DE SAUDE EDSON SALES","dsc_endereco":"RUA WALTER WILTON MAIA","dsc_bairro":"CRISTO LIBERTADOR","dsc_telefone":"0","cidade":"Sena Madureira","estado":"Acre"},{"Id":"29907","vlr_latitude":"-8.16598534584022","vlr_longitude":"-70.7661795616129","nom_estab":"UNIDADE DE S DA FAMILIA MARIA DA LUZ","dsc_endereco":"RUA ANTONIO PINTO","dsc_bairro":"SENADOR POMPEU","dsc_telefone":"0","cidade":null,"estado":"Acre"},{"Id":"30926","vlr_latitude":"-7.5281238555906","vlr_longitude":"-72.8819274902323","nom_estab":"POSTO DE SAUDE PETENCOSTES","dsc_endereco":"EST BR 364","dsc_bairro":"PETENCOSTE","dsc_telefone":"0","cidade":"Cruzeiro do Sul","estado":"Acre"},{"Id":"30959","vlr_latitude":"-9.98581051826448","vlr_longitude":"-67.8115010261516","nom_estab":"URAP EDUARDO ASSMAR","dsc_endereco":"RUA JULIO CAMILO DE OLIVEIRA","dsc_bairro":"QUINZE","dsc_telefone":"2147483647","cidade":"Rio Branco","estado":"Acre"},{"Id":"31208","vlr_latitude":"-9.96105909347505","vlr_longitude":"-67.7897000312785","nom_estab":"USF ADALBERTO ARAGAO","dsc_endereco":"RUA MAURI SERGIO","dsc_bairro":"ADALBERTO ARAGAO","dsc_telefone":"2147483647","cidade":"Rio Branco","estado":"Acre"},{"Id":"31330","vlr_latitude":"-9.05966520309422","vlr_longitude":"-68.6609029769878","nom_estab":"UNIDADE BASICA DE SAUDE LAURO FONTES DA SILVA","dsc_endereco":"RUA NEWTON PRADO","dsc_bairro":"CAFEZAL","dsc_telefone":"0","cidade":"Sena Madureira","estado":"Acre"},{"Id":"31587","vlr_latitude":"-9.75501179695101","vlr_longitude":"-67.3581218719463","nom_estab":"UNIDADE DE SAUDE DA FAMILIA MANOEL BAYMA","dsc_endereco":"BR364 KM 72","dsc_bairro":"PROJETO CAQUETA","dsc_telefone":"0","cidade":"Porto Acre","estado":"Acre"},{"Id":"31712","vlr_latitude":"-9.98871803283662","vlr_longitude":"-67.8256416320781","nom_estab":"USF GLORIA PISTA I","dsc_endereco":"RUA F","dsc_bairro":"BAHIA VELHA GLORIA","dsc_telefone":"32251105","cidade":"Rio Branco","estado":"Acre"},{"Id":"31853","vlr_latitude":"-11.0302948951718","vlr_longitude":"-68.7378287315349","nom_estab":"ESF JOSE PAULO DE SOUZA","dsc_endereco":"RUA CAPITAO PEDRO VASCONCELOS","dsc_bairro":"AEROPORTO","dsc_telefone":"0","cidade":null,"estado":"Acre"},{"Id":"32162","vlr_latitude":"-10.0038027763364","vlr_longitude":"-67.8190970420818","nom_estab":"USF TAQUARI I","dsc_endereco":"RUA BAGUARI","dsc_bairro":"TAQUARI","dsc_telefone":"2147483647","cidade":"Rio Branco","estado":"Acre"},{"Id":"32317","vlr_latitude":"-9.9837076663968","vlr_longitude":"-67.8356623649577","nom_estab":"USF FLORESTA SUL","dsc_endereco":"RUA SANTA MARIA","dsc_bairro":"JOAO EDUARDO II","dsc_telefone":"2147483647","cidade":"Rio Branco","estado":"Acre"},{"Id":"32405","vlr_latitude":"-9.828","vlr_longitude":"-66.883","nom_estab":"POSTO DE SAUDE DO VINTE E QUATRO","dsc_endereco":"RAMAL GRANADA","dsc_bairro":"RAMAL GRANADA","dsc_telefone":"2147483647","cidade":null,"estado":"Acre"},{"Id":"32527","vlr_latitude":"-7.72492289543129","vlr_longitude":"-72.7385687828043","nom_estab":"UNIDADE DE SAUDE DA FAMILIA SAO PEDRO","dsc_endereco":"SERINGAL SAO PEDRO","dsc_bairro":"SAO PEDRO","dsc_telefone":"0","cidade":"Cruzeiro do Sul","estado":"Acre"},{"Id":"32879","vlr_latitude":"-7.59994268417336","vlr_longitude":"-72.7356505393961","nom_estab":"UNIDADE DE SAUDE DA FAMILIA JOSE LOPES DE SOUZA","dsc_endereco":"ESTRADA DO AEROPORTO INTERNACIONAL","dsc_bairro":"IGARAPE PRETO","dsc_telefone":"0","cidade":"Cruzeiro do Sul","estado":"Acre"},{"Id":"33492","vlr_latitude":"-10.3278350830075","vlr_longitude":"-67.1840357780437","nom_estab":"U S F LUCIO ALVES DA SILVA","dsc_endereco":"RUA OLIMPIO DA SILVA GOMES","dsc_bairro":"CONJUNTO FREI PEREGR","dsc_telefone":"32371244","cidade":null,"estado":"Acre"},{"Id":"33546","vlr_latitude":"-9.97526407241792","vlr_longitude":"-67.7969527244548","nom_estab":"USF 06 DE AGOSTO I","dsc_endereco":"RUA 06 DE AGOSTO","dsc_bairro":"06 DE AGOSTO","dsc_telefone":"2147483647","cidade":"Rio Branco","estado":"Acre"},{"Id":"33592","vlr_latitude":"-10.16691327095","vlr_longitude":"-67.7214646339397","nom_estab":"UNIDADE DE SAUDE DA FAMILIA MIGUEL SEVERINO DE OLIVEIRA","dsc_endereco":"GERSON PEREIRA","dsc_bairro":"DEMOCRACIA","dsc_telefone":"0","cidade":"Senador Guiomard","estado":"Acre"},{"Id":"33716","vlr_latitude":"-7.61592864990212","vlr_longitude":"-72.6683592796305","nom_estab":"UNIDADE DA SAUDE DA FAM FRANCISCO ARY DA SILVEIRA","dsc_endereco":"RUA SAO PAULO","dsc_bairro":"CONJUNTO MANCIO LIMA","dsc_telefone":"0","cidade":"Cruzeiro do Sul","estado":"Acre"},{"Id":"33797","vlr_latitude":"-9.82736706733675","vlr_longitude":"-66.8804097175579","nom_estab":"UNIDADE DE SAUDE DA FAMILIA JOAO DANIEL DAMASCENO","dsc_endereco":"BR 364 KM 114","dsc_bairro":"ZONA RURAL","dsc_telefone":"68","cidade":null,"estado":"Acre"},{"Id":"33948","vlr_latitude":"-8.16201567649818","vlr_longitude":"-70.7643127441386","nom_estab":"USF PADRE HUBERT GROSSHEIM","dsc_endereco":"RUA JOAO PESSOA","dsc_bairro":"CENTRO","dsc_telefone":"2147483647","cidade":null,"estado":"Acre"},{"Id":"34037","vlr_latitude":"-9.97576832771272","vlr_longitude":"-67.8008794784526","nom_estab":"USF 06 DE AGOSTO II","dsc_endereco":"RUA 1 DE MAIO","dsc_bairro":"06 DE AGOSTO","dsc_telefone":"2147483647","cidade":"Rio Branco","estado":"Acre"},{"Id":"34131","vlr_latitude":"-9.97863292694063","vlr_longitude":"-67.8103637695293","nom_estab":"USF BASE","dsc_endereco":"RUA ESTADO DO ACRE","dsc_bairro":"BASE","dsc_telefone":"2147483647","cidade":"Rio Branco","estado":"Acre"},{"Id":"34260","vlr_latitude":"-11.0136759281155","vlr_longitude":"-68.747935295103","nom_estab":"ESF JOSE MARIA DE SOUZA SANTOS","dsc_endereco":"AV GENY ASSIS","dsc_bairro":"CENTRO","dsc_telefone":"0","cidade":null,"estado":"Acre"},{"Id":"34344","vlr_latitude":"-7.63336300849892","vlr_longitude":"-72.6776933670023","nom_estab":"UNIDADE DA SAUDE DA FAMILIA PASTOR JOAO BRAZ","dsc_endereco":"RUA NILO PECANHA","dsc_bairro":"SANACRE","dsc_telefone":"0","cidade":"Cruzeiro do Sul","estado":"Acre"},{"Id":"34485","vlr_latitude":"-10.3182435035703","vlr_longitude":"-67.191653251646","nom_estab":"U S F JOAO DE DEUS","dsc_endereco":"ROD AC 40 KM 02","dsc_bairro":"MUTIRAO III","dsc_telefone":"32371946","cidade":null,"estado":"Acre"},{"Id":"34777","vlr_latitude":"-9.44186925888034","vlr_longitude":"-70.4891180992106","nom_estab":"CENTRO DE SAUDE PAULO ALCIONE MARQUES","dsc_endereco":"RUA PROFIRO DE MOURA","dsc_bairro":"CENTRO","dsc_telefone":"0","cidade":"Santa Rosa do Purus","estado":"Acre"},{"Id":"34836","vlr_latitude":"-9.9803924560544","vlr_longitude":"-67.8813028335552","nom_estab":"USF NOVO CALAFATE","dsc_endereco":"RUA MIZAEL MARTINS","dsc_bairro":"LAELIA ALCANTARA","dsc_telefone":"2147483647","cidade":"Rio Branco","estado":"Acre"},{"Id":"34953","vlr_latitude":"-10.0077724456784","vlr_longitude":"-67.0386815071086","nom_estab":"UNIDADE DE SAUDE DA FAMILIA REDENCAO","dsc_endereco":"AC 475 VILA REDENCAOI","dsc_bairro":"ZONA RURAL","dsc_telefone":"2147483647","cidade":null,"estado":"Acre"},{"Id":"35178","vlr_latitude":"-8.15912961959815","vlr_longitude":"-70.7633686065653","nom_estab":"UNIDADE BASICA DE SAUDE JOAO WANDERLEI","dsc_endereco":"RUA JUSTINIANO SERPA","dsc_bairro":"CENTRO","dsc_telefone":"0","cidade":null,"estado":"Acre"},{"Id":"35719","vlr_latitude":"-10.6617057323453","vlr_longitude":"-68.5057425498943","nom_estab":"POSTO DE SAUDE MAURO JOSE LIMA DE SOUZA","dsc_endereco":"RUA PLACIDO DE CASTRO","dsc_bairro":"BRAGA SOBRINHO","dsc_telefone":"0","cidade":"Xapuri","estado":"Acre"},{"Id":"35960","vlr_latitude":"-7.62410402297952","vlr_longitude":"-72.6734018325784","nom_estab":"UNIDADE SAUDE DA FAMILIA 25 DE AGOSTO","dsc_endereco":"AV 25 DE AGOSTO","dsc_bairro":"25 DE AGOSTO","dsc_telefone":"0","cidade":"Cruzeiro do Sul","estado":"Acre"},{"Id":"36112","vlr_latitude":"-9.93697285652132","vlr_longitude":"-67.8957867622356","nom_estab":"UNIDADE PENITENCIARIA DOUTOR FRANCISCO D OLIVEIRA CONDE","dsc_endereco":"ESTRADA DO BARRO VERMELHO","dsc_bairro":"DISTRITO INDUSTRIAL","dsc_telefone":"32291156","cidade":"Rio Branco","estado":"Acre"},{"Id":"36316","vlr_latitude":"-10.0003480911252","vlr_longitude":"-67.826156616209","nom_estab":"USF AYRTON SENNA I","dsc_endereco":"RUA SALINAS","dsc_bairro":"AYRTON SENNA I","dsc_telefone":"32254022","cidade":"Rio Branco","estado":"Acre"},{"Id":"36359","vlr_latitude":"-8.15270304679847","vlr_longitude":"-70.7313323020914","nom_estab":"UNIDADE DE SAUDE DA FAMILIA MARILIA VIEIRA LIMA DE SOUZA","dsc_endereco":"RUA CEL PINHEIRO CAVALCANTE","dsc_bairro":"CORCOVADO","dsc_telefone":"68","cidade":null,"estado":"Acre"},{"Id":"36381","vlr_latitude":"-7.62614250183083","vlr_longitude":"-72.8816699981668","nom_estab":"UNIDADE S FAMILIA DR CERQUEIRA","dsc_endereco":"AVENIDA JAPIIM","dsc_bairro":"GUARANI","dsc_telefone":"0","cidade":null,"estado":"Acre"},{"Id":"36506","vlr_latitude":"-9.92538571357698","vlr_longitude":"-67.83426761627","nom_estab":"USF MONTANHES","dsc_endereco":"RUA RAIMUNDO MELO","dsc_bairro":"TANCREDO NEVES","dsc_telefone":"2147483647","cidade":"Rio Branco","estado":"Acre"},{"Id":"36527","vlr_latitude":"-9.928990602493","vlr_longitude":"-67.8383874893169","nom_estab":"USF JORGE LAVOCAT","dsc_endereco":"RUA DOM MOACIR","dsc_bairro":"TANCREDO NEVES","dsc_telefone":"2147483647","cidade":"Rio Branco","estado":"Acre"},{"Id":"37092","vlr_latitude":"-9.82822537422152","vlr_longitude":"-67.9548811912517","nom_estab":"CENTRO DE SAUDE RAIMUNDA PORFIRIO DE BRITO RAMOS","dsc_endereco":"RUA PROJETADA DO FORUM","dsc_bairro":"CENTRO","dsc_telefone":"0","cidade":"Bujari","estado":"Acre"},{"Id":"37137","vlr_latitude":"-9.99886751174898","vlr_longitude":"-67.833731174467","nom_estab":"USF JOAO PAULO","dsc_endereco":"RUA 03 DE AGOSTO","dsc_bairro":"JARDIM SAO SEBASTIAO","dsc_telefone":"2147483647","cidade":"Rio Branco","estado":"Acre"},{"Id":"37215","vlr_latitude":"-9.96801137924165","vlr_longitude":"-67.7318286895732","nom_estab":"USF BELO JARDIM III LIBERDADE CATUABA VISTA ALEGRE","dsc_endereco":"BR 364 RAMAL BELO JARDIM","dsc_bairro":"ZONA RURAL","dsc_telefone":"0","cidade":"Rio Branco","estado":"Acre"},{"Id":"37391","vlr_latitude":"-8.17791581153846","vlr_longitude":"-70.3541707992533","nom_estab":"U S F FRANCISCA XAVIER FERREIRA","dsc_endereco":"RUA 21 DE DEZEMBRO","dsc_bairro":"NAIR ARAUJO","dsc_telefone":"0","cidade":null,"estado":"Acre"}]